{"type":"FeatureCollection","features":[{"type":"Feature","properties":{"id":1,"year":2011,"rank":1,"brewery_name":"Boston Beer Co.","city":"Boston","state":"MA"},"geometry":{"type":"Point","coordinates":[-71.103,42.3146]}},{"type":"Feature","properties":{"id":2,"year":2011,"rank":2,"brewery_name":"Sierra Nevada Brewing Co.","city":"Chico","state":"CA"},"geometry":{"type":"Point","coordinates":[-121.8375,39.7285]}},{"type":"Feature","properties":{"id":3,"year":2011,"rank":3,"brewery_name":"New Belgium Brewing Co.","city":"Fort Collins","state":"CO"},"geometry":{"type":"Point","coordinates":[-105.0844,40.5853]}},{"type":"Feature","properties":{"id":4,"year":2011,"rank":4,"brewery_name":"The Gambrinus Company","city":"San Antonio","state":"TX"},"geometry":{"type":"Point","coordinates":[-98.4936,29.4241]}},{"type":"Feature","properties":{"id":5,"year":2011,"rank":5,"brewery_name":"Deschutes Brewery","city":"Bend","state":"OR"},"geometry":{"type":"Point","coordinates":[-121.3153,44.0582]}},{"type":"Feature","properties":{"id":6,"year":2011,"rank":6,"brewery_name":"Matt Brewing Co. ","city":"Utica","state":"NY"},"geometry":{"type":"Point","coordinates":[-75.2327,43.1009]}},{"type":"Feature","properties":{"id":7,"year":2011,"rank":7,"brewery_name":"Bell's Brewery, Inc.","city":"Galesburg","state":"MI"},"geometry":{"type":"Point","coordinates":[-85.4175,42.2905]}},{"type":"Feature","properties":{"id":8,"year":2011,"rank":8,"brewery_name":"Harpoon Brewery","city":"Boston","state":"MA"},"geometry":{"type":"Point","coordinates":[-71.0589,42.3601]}},{"type":"Feature","properties":{"id":9,"year":2011,"rank":9,"brewery_name":"Laquintas Brewing Co.","city":"Petaluma","state":"CA"},"geometry":{"type":"Point","coordinates":[-122.6367,38.2324]}},{"type":"Feature","properties":{"id":10,"year":2011,"rank":10,"brewery_name":"Boulevard Brewing Co. ","city":"Kansas City","state":"MO"},"geometry":{"type":"Point","coordinates":[-94.5786,39.0997]}},{"type":"Feature","properties":{"id":11,"year":2012,"rank":1,"brewery_name":"Boston Beer Co.","city":"Boston","state":"MA"},"geometry":{"type":"Point","coordinates":[-71.103,42.3146]}},{"type":"Feature","properties":{"id":12,"year":2012,"rank":2,"brewery_name":"Sierra Nevada Brewing Co.","city":"Chico","state":"CA"},"geometry":{"type":"Point","coordinates":[-121.8375,39.7285]}},{"type":"Feature","properties":{"id":13,"year":2012,"rank":3,"brewery_name":"New Belgium Brewing Co.","city":"Fort Collins","state":"CO"},"geometry":{"type":"Point","coordinates":[-105.0844,40.5853]}},{"type":"Feature","properties":{"id":14,"year":2012,"rank":4,"brewery_name":"The Gambrinus Company","city":"San Antonio","state":"TX"},"geometry":{"type":"Point","coordinates":[-98.4936,29.4241]}},{"type":"Feature","properties":{"id":15,"year":2012,"rank":5,"brewery_name":"Deschutes Brewery","city":"Bend","state":"OR"},"geometry":{"type":"Point","coordinates":[-121.3153,44.0582]}},{"type":"Feature","properties":{"id":16,"year":2012,"rank":6,"brewery_name":"Laquintas Brewing Co.","city":"Petaluma","state":"CA"},"geometry":{"type":"Point","coordinates":[-122.6367,38.2324]}},{"type":"Feature","properties":{"id":17,"year":2012,"rank":7,"brewery_name":"Bell's Brewery, Inc.","city":"Galesburg","state":"MI"},"geometry":{"type":"Point","coordinates":[-85.4175,42.2905]}},{"type":"Feature","properties":{"id":18,"year":2012,"rank":8,"brewery_name":"Matt Brewing Co. ","city":"Utica","state":"NY"},"geometry":{"type":"Point","coordinates":[-75.2327,43.1009]}},{"type":"Feature","properties":{"id":19,"year":2012,"rank":9,"brewery_name":"Harpoon Brewery","city":"Boston","state":"MA"},"geometry":{"type":"Point","coordinates":[-71.0589,42.3601]}},{"type":"Feature","properties":{"id":20,"year":2012,"rank":10,"brewery_name":"Stone Brewing Co.","city":"Escondido","state":"CA"},"geometry":{"type":"Point","coordinates":[-117.0864,33.1192]}},{"type":"Feature","properties":{"id":21,"year":2013,"rank":1,"brewery_name":"Boston Beer Co.","city":"Boston","state":"MA"},"geometry":{"type":"Point","coordinates":[-71.103,42.3146]}},{"type":"Feature","properties":{"id":22,"year":2013,"rank":2,"brewery_name":"Sierra Nevada Brewing Co.","city":"Chico","state":"CA"},"geometry":{"type":"Point","coordinates":[-121.8375,39.7285]}},{"type":"Feature","properties":{"id":23,"year":2013,"rank":3,"brewery_name":"New Belgium Brewing Co.","city":"Fort Collins","state":"CO"},"geometry":{"type":"Point","coordinates":[-105.0844,40.5853]}},{"type":"Feature","properties":{"id":24,"year":2013,"rank":4,"brewery_name":"The Gambrinus Company","city":"San Antonio","state":"TX"},"geometry":{"type":"Point","coordinates":[-98.4936,29.4241]}},{"type":"Feature","properties":{"id":25,"year":2013,"rank":5,"brewery_name":"Laquintas Brewing Co.","city":"Petaluma","state":"CA"},"geometry":{"type":"Point","coordinates":[-122.6367,38.2324]}},{"type":"Feature","properties":{"id":26,"year":2013,"rank":6,"brewery_name":"Deschutes Brewery","city":"Bend","state":"OR"},"geometry":{"type":"Point","coordinates":[-121.3153,44.0582]}},{"type":"Feature","properties":{"id":27,"year":2013,"rank":7,"brewery_name":"Bell's Brewery, Inc.","city":"Galesburg","state":"MI"},"geometry":{"type":"Point","coordinates":[-85.4175,42.2905]}},{"type":"Feature","properties":{"id":28,"year":2013,"rank":8,"brewery_name":"Duvel Moortgat USA","city":"Kansas City","state":"MO"},"geometry":{"type":"Point","coordinates":[-94.5786,39.0997]}},{"type":"Feature","properties":{"id":29,"year":2013,"rank":9,"brewery_name":"Brooklyn Brewery","city":"Brooklyn","state":"NY"},"geometry":{"type":"Point","coordinates":[-73.9442,40.6782]}},{"type":"Feature","properties":{"id":30,"year":2013,"rank":10,"brewery_name":"Stone Brewing Co.","city":"Escondido","state":"CA"},"geometry":{"type":"Point","coordinates":[-117.0864,33.1192]}},{"type":"Feature","properties":{"id":31,"year":2014,"rank":1,"brewery_name":"D.G. Yuengling and Son, Inc.","city":"Pottsville","state":"PA"},"geometry":{"type":"Point","coordinates":[-76.1955,40.6856]}},{"type":"Feature","properties":{"id":32,"year":2014,"rank":2,"brewery_name":"Boston Beer Co.","city":"Boston","state":"MA"},"geometry":{"type":"Point","coordinates":[-71.103,42.3146]}},{"type":"Feature","properties":{"id":33,"year":2014,"rank":3,"brewery_name":"Sierra Nevada Brewing Co.","city":"Chico","state":"CA"},"geometry":{"type":"Point","coordinates":[-121.8375,39.7285]}},{"type":"Feature","properties":{"id":34,"year":2014,"rank":4,"brewery_name":"New Belgium Brewing Co.","city":"Fort Collins","state":"CO"},"geometry":{"type":"Point","coordinates":[-105.0844,40.5853]}},{"type":"Feature","properties":{"id":35,"year":2014,"rank":5,"brewery_name":"The Gambrinus Company","city":"San Antonio","state":"TX"},"geometry":{"type":"Point","coordinates":[-98.4936,29.4241]}},{"type":"Feature","properties":{"id":36,"year":2014,"rank":6,"brewery_name":"Laquintas Brewing Co.","city":"Petaluma","state":"CA"},"geometry":{"type":"Point","coordinates":[-122.6367,38.2324]}},{"type":"Feature","properties":{"id":37,"year":2014,"rank":7,"brewery_name":"Deschutes Brewery","city":"Bend","state":"OR"},"geometry":{"type":"Point","coordinates":[-121.3153,44.0582]}},{"type":"Feature","properties":{"id":38,"year":2014,"rank":8,"brewery_name":"Bell's Brewery, Inc.","city":"Galesburg","state":"MI"},"geometry":{"type":"Point","coordinates":[-85.4175,42.2905]}},{"type":"Feature","properties":{"id":39,"year":2014,"rank":9,"brewery_name":"Stone Brewing Co.","city":"Escondido","state":"CA"},"geometry":{"type":"Point","coordinates":[-117.0864,33.1192]}},{"type":"Feature","properties":{"id":40,"year":2014,"rank":10,"brewery_name":"Minhas Craft Brewery","city":"Monroe","state":"WI"},"geometry":{"type":"Point","coordinates":[-89.6385,42.6011]}},{"type":"Feature","properties":{"id":41,"year":2015,"rank":1,"brewery_name":"D.G. Yuengling and Son, Inc.","city":"Pottsville","state":"PA"},"geometry":{"type":"Point","coordinates":[-76.1955,40.6856]}},{"type":"Feature","properties":{"id":42,"year":2015,"rank":2,"brewery_name":"Boston Beer Co.","city":"Boston","state":"MA"},"geometry":{"type":"Point","coordinates":[-71.103,42.3146]}},{"type":"Feature","properties":{"id":43,"year":2015,"rank":3,"brewery_name":"Sierra Nevada Brewing Co.","city":"Chico","state":"CA"},"geometry":{"type":"Point","coordinates":[-121.8375,39.7285]}},{"type":"Feature","properties":{"id":44,"year":2015,"rank":4,"brewery_name":"New Belgium Brewing Co.","city":"Fort Collins","state":"CO"},"geometry":{"type":"Point","coordinates":[-105.0844,40.5853]}},{"type":"Feature","properties":{"id":45,"year":2015,"rank":5,"brewery_name":"The Gambrinus Company","city":"San Antonio","state":"TX"},"geometry":{"type":"Point","coordinates":[-98.4936,29.4241]}},{"type":"Feature","properties":{"id":46,"year":2015,"rank":6,"brewery_name":"Laquintas Brewing Co.","city":"Petaluma","state":"CA"},"geometry":{"type":"Point","coordinates":[-122.6367,38.2324]}},{"type":"Feature","properties":{"id":47,"year":2015,"rank":7,"brewery_name":"Bell's Brewery, Inc.","city":"Galesburg","state":"MI"},"geometry":{"type":"Point","coordinates":[-85.4175,42.2905]}},{"type":"Feature","properties":{"id":48,"year":2015,"rank":8,"brewery_name":"Deschutes Brewery","city":"Bend","state":"OR"},"geometry":{"type":"Point","coordinates":[-121.3153,44.0582]}},{"type":"Feature","properties":{"id":49,"year":2015,"rank":9,"brewery_name":"Minhas Craft Brewery","city":"Monroe","state":"WI"},"geometry":{"type":"Point","coordinates":[-89.6385,42.6011]}},{"type":"Feature","properties":{"id":50,"year":2015,"rank":10,"brewery_name":"Stone Brewing Co.","city":"Escondido","state":"CA"},"geometry":{"type":"Point","coordinates":[-117.0864,33.1192]}},{"type":"Feature","properties":{"id":51,"year":2016,"rank":1,"brewery_name":"D.G. Yuengling and Son, Inc.","city":"Pottsville","state":"PA"},"geometry":{"type":"Point","coordinates":[-76.1955,40.6856]}},{"type":"Feature","properties":{"id":52,"year":2016,"rank":2,"brewery_name":"Boston Beer Co.","city":"Boston","state":"MA"},"geometry":{"type":"Point","coordinates":[-71.103,42.3146]}},{"type":"Feature","properties":{"id":53,"year":2016,"rank":3,"brewery_name":"Sierra Nevada Brewing Co.","city":"Chico","state":"CA"},"geometry":{"type":"Point","coordinates":[-121.8375,39.7285]}},{"type":"Feature","properties":{"id":54,"year":2016,"rank":4,"brewery_name":"New Belgium Brewing Co.","city":"Fort Collins","state":"CO"},"geometry":{"type":"Point","coordinates":[-105.0844,40.5853]}},{"type":"Feature","properties":{"id":55,"year":2016,"rank":5,"brewery_name":"The Gambrinus Company","city":"San Antonio","state":"TX"},"geometry":{"type":"Point","coordinates":[-98.4936,29.4241]}},{"type":"Feature","properties":{"id":56,"year":2016,"rank":6,"brewery_name":"Laquintas Brewing Co.","city":"Petaluma","state":"CA"},"geometry":{"type":"Point","coordinates":[-122.6367,38.2324]}},{"type":"Feature","properties":{"id":57,"year":2016,"rank":7,"brewery_name":"Bell's Brewery, Inc.","city":"Galesburg","state":"MI"},"geometry":{"type":"Point","coordinates":[-85.4175,42.2905]}},{"type":"Feature","properties":{"id":58,"year":2016,"rank":8,"brewery_name":"Deschutes Brewery","city":"Bend","state":"OR"},"geometry":{"type":"Point","coordinates":[-121.3153,44.0582]}},{"type":"Feature","properties":{"id":59,"year":2016,"rank":9,"brewery_name":"Minhas Craft Brewery","city":"Monroe","state":"WI"},"geometry":{"type":"Point","coordinates":[-89.6385,42.6011]}},{"type":"Feature","properties":{"id":60,"year":2016,"rank":10,"brewery_name":"Stone Brewing Co.","city":"Escondido","state":"CA"},"geometry":{"type":"Point","coordinates":[-117.0864,33.1192]}}]}